[
  {
    "name": "Families Forward Bidwell Pantry",
    "address": "1203 Hartford Ave",
    "city": "Des Moines",
    "type": "pantry",
    "hours": "Mon\u2013Fri 10am\u20135pm (verify)",
    "phone": "(515) 244-6251",
    "notes": "Client-choice pantry. IDs preferred but not required. needs verification.",
    "noId": true
  },
  {
    "name": "Urban Dreams Pantry",
    "address": "1615 2nd Ave",
    "city": "Des Moines",
    "type": "pantry",
    "hours": "Mon\u2013Fri 9am\u20135pm (verify)",
    "phone": "(515) 288-4742",
    "notes": "General assistance & pantry. needs verification."
  },
  {
    "name": "Community Fridge \u2013 CYC (1446 MLK Jr Dr)",
    "address": "1446 Martin Luther King Jr Pkwy",
    "city": "Des Moines",
    "type": "fridge",
    "hours": "24/7",
    "isFridge": true,
    "notes": "Take what you need, leave what you can."
  },
  {
    "name": "Salvation Army Pantry \u2013 100th St (near Valley West)",
    "address": "1400 NW 100th St",
    "city": "Clive",
    "type": "pantry",
    "hours": "Tue/Wed/Fri 9\u201312 & 1\u20133:30 (verify)",
    "phone": "(515) 282-3599",
    "notes": "Closest to Valley West. Verify hours."
  },
  {
    "name": "Hope Caf\u00e9 (Thanksgiving)",
    "address": "1310 6th Ave",
    "city": "Des Moines",
    "type": "holiday",
    "hours": "Thanksgiving Day 12\u20131 pm (verify date)",
    "notes": "Dine-in meal; no reservation needed."
  },
  {
    "name": "Chuck\u2019s + Parks Community (Thanksgiving delivery)",
    "address": "3610 6th Ave",
    "city": "Des Moines",
    "type": "holiday",
    "hours": "Call to schedule (verify)",
    "phone": "(515) 875-5229",
    "notes": "Delivery for DSM residents; call early. needs verification."
  },
  {
    "name": "KADI \u2013 Knock and Drop Iowa (Latino-focused)",
    "address": "Various sites",
    "city": "Des Moines",
    "type": "program",
    "hours": "See FB page events",
    "notes": "Event-based Latino community distributions. Verify times."
  }
]